<markers> 
 <marker id='1' name='בוגרשוב' address='הירקון 120, תל אביב-יפו' lat='32.0784' lng='34.7663' type='beach'/> <marker id='2' name='ירושלים' address='הירקון 109, תל אביב-יפו' lat='32.073624' lng='34.764548' type='beach'/> <marker id='3' name='מציצים' address='חבקוק הנביא 0, תל אביב-יפו' lat='32.093783' lng='34.77135' type='beach'/> <marker id='4' name='אביב' address='טיילת שלמה להט 0, תל אביב-יפו' lat='32.070006' lng='34.763383' type='beach'/> <marker id='5' name='גבעת עלייה' address='בת גלים 0, תל אביב-יפו' lat='32.038948' lng='34.745442' type='beach'/> <marker id='6' name='גורדון' address='טיילת שלמה להט 0, תל אביב-יפו' lat='32.082737' lng='34.767827' type='beach'/> <marker id='7' name='הילטון' address='טיילת שלמה להט 0, תל אביב-יפו' lat='32.090669' lng='34.769791' type='beach'/> <marker id='8' name='הצוק הצפוני' address='2170 0, תל אביב-יפו' lat='32.143221' lng='34.79105' type='beach'/> <marker id='9' name='פרישמן' address='פרישמן 0, תל אביב-יפו' lat='32.080137' lng='34.766805' type='beach'/> <marker id='10' name='תל ברוך' address='יצחק ארצי 34, תל אביב-יפו' lat='32.121603' lng='34.782616' type='beach'/> <marker id='11' name='הצוק הדרומי' address='שמעון סאמט 0, תל אביב-יפו' lat='32.139947' lng='34.789813' type='beach'/>  
 </markers>